FunctionalTest/DutyCycleTest/accessFiles/Sat2ToGroundStationWindows.csv

"Start","Stop"
20 Sep 2001 00:00:00.00,27 Sep 2001 00:00:00.00
"Time (UTCG)","Azimuth (deg)","Elevation (deg)","Range (km)"
20 Sep 2001 02:01:44.40,77.997,-20.209,2352.121853
20 Sep 2001 02:02:44.00,88.348,-20.214,2290.830698
20 Sep 2001 02:03:44.00,98.997,-20.212,2307.231547
20 Sep 2001 02:04:13.98,104.166,-20.209,2344.603749
20 Sep 2001 03:31:44.36,31.229,-20.210,2356.878246
20 Sep 2001 03:32:44.00,37.350,-20.478,1996.775806
20 Sep 2001 03:33:44.00,46.297,-21.436,1668.702991
20 Sep 2001 03:34:44.00,59.511,-23.078,1401.361064
20 Sep 2001 03:35:44.00,78.094,-24.727,1236.526521
20 Sep 2001 03:36:44.00,100.021,-24.960,1217.584194
20 Sep 2001 03:37:44.00,119.786,-23.518,1350.910048
20 Sep 2001 03:38:44.00,134.264,-21.773,1598.485402
20 Sep 2001 03:39:44.00,144.108,-20.636,1915.760292
20 Sep 2001 03:40:44.00,150.842,-20.219,2272.699675
20 Sep 2001 03:40:52.76,151.639,-20.210,2327.005348
20 Sep 2001 05:03:29.34,1.182,-20.210,2357.693498
20 Sep 2001 05:04:29.00,1.080,-20.614,1925.940125
20 Sep 2001 05:05:29.00,0.923,-22.386,1494.585004
20 Sep 2001 05:06:29.00,0.632,-27.136,1072.878304
20 Sep 2001 05:07:29.00,359.872,-39.990,682.851248
20 Sep 2001 05:08:29.00,351.790,-77.839,427.512466
20 Sep 2001 05:09:29.00,184.064,-50.944,549.510294
20 Sep 2001 05:10:29.00,182.663,-30.839,907.432596
20 Sep 2001 05:11:29.00,182.269,-23.804,1320.932429
20 Sep 2001 05:12:29.00,182.088,-21.113,1749.871356
20 Sep 2001 05:13:29.00,181.989,-20.261,2183.790407
20 Sep 2001 05:13:48.58,181.966,-20.210,2325.710296
20 Sep 2001 06:35:31.25,334.439,-20.210,2358.001572
20 Sep 2001 06:36:31.00,328.634,-20.510,1978.257309
20 Sep 2001 06:37:31.00,319.950,-21.622,1628.422056
20 Sep 2001 06:38:31.00,306.587,-23.645,1337.380969
20 Sep 2001 06:39:31.00,286.716,-25.846,1152.397361
20 Sep 2001 06:40:31.00,262.342,-26.217,1127.903291
20 Sep 2001 06:41:31.00,240.739,-24.303,1273.267690
20 Sep 2001 06:42:31.00,225.715,-22.096,1540.587385
20 Sep 2001 06:43:31.00,215.966,-20.727,1877.524175
20 Sep 2001 06:44:31.00,209.508,-20.225,2251.822475
20 Sep 2001 06:44:43.78,208.422,-20.209,2334.534043
20 Sep 2001 08:07:33.62,310.123,-20.210,2358.094159
20 Sep 2001 08:08:33.00,300.808,-20.325,2108.427018
20 Sep 2001 08:09:33.00,289.102,-20.612,1926.837441
20 Sep 2001 08:10:33.00,275.516,-20.831,1838.298601
20 Sep 2001 08:11:33.00,261.368,-20.781,1856.570808
20 Sep 2001 08:12:33.00,248.316,-20.509,1978.580648
20 Sep 2001 08:13:33.00,237.391,-20.259,2186.487331
20 Sep 2001 08:14:09.94,231.814,-20.209,2347.362395
20 Sep 2001 09:39:06.94,292.225,-20.210,2357.749426
20 Sep 2001 09:40:06.00,281.729,-20.234,2231.115191
20 Sep 2001 09:41:06.00,270.157,-20.259,2186.478270
20 Sep 2001 09:42:06.00,258.590,-20.234,2231.757133
20 Sep 2001 09:43:04.05,248.272,-20.210,2356.144860
20 Sep 2001 11:08:47.73,296.452,-20.210,2353.718314
20 Sep 2001 11:09:47.00,286.133,-20.256,2190.905946
20 Sep 2001 11:10:47.00,274.363,-20.326,2108.268682
20 Sep 2001 11:11:47.00,262.153,-20.315,2118.388481
20 Sep 2001 11:12:47.00,250.606,-20.239,2219.971049
20 Sep 2001 11:13:34.63,242.458,-20.210,2358.001700
20 Sep 2001 12:37:42.77,316.691,-20.209,2342.492229
20 Sep 2001 12:38:42.00,308.367,-20.407,2042.121916
20 Sep 2001 12:39:42.00,297.129,-20.955,1796.704520
20 Sep 2001 12:40:42.00,282.828,-21.573,1638.686738
20 Sep 2001 12:41:42.00,266.507,-21.790,1595.131986
20 Sep 2001 12:42:42.00,250.578,-21.407,1675.235556
20 Sep 2001 12:43:42.00,237.155,-20.764,1862.813688
20 Sep 2001 12:44:42.00,226.813,-20.305,2128.937364
20 Sep 2001 12:45:25.95,220.946,-20.210,2358.081913
20 Sep 2001 14:07:38.85,341.345,-20.210,2330.295966
20 Sep 2001 14:08:38.00,337.488,-20.619,1923.270575
20 Sep 2001 14:09:38.00,331.306,-22.181,1526.624115
20 Sep 2001 14:10:38.00,320.521,-25.651,1165.912810
20 Sep 2001 14:11:38.00,299.917,-31.374,888.764898
20 Sep 2001 14:12:38.00,265.037,-34.744,790.536271
20 Sep 2001 14:13:38.00,232.373,-30.225,930.207426
20 Sep 2001 14:14:38.00,214.145,-24.821,1228.738485
20 Sep 2001 14:15:38.00,204.488,-21.772,1598.578212
20 Sep 2001 14:16:38.00,198.834,-20.473,1999.329215
20 Sep 2001 14:17:29.93,195.610,-20.210,2357.915139
20 Sep 2001 15:39:16.15,9.011,-20.210,2324.758822
20 Sep 2001 15:40:16.00,11.464,-20.668,1901.789672
20 Sep 2001 15:41:16.00,15.438,-22.442,1486.255961
20 Sep 2001 15:42:16.00,22.802,-26.805,1091.843178
20 Sep 2001 15:43:16.00,39.749,-36.231,755.519094
20 Sep 2001 15:44:16.00,84.773,-46.835,589.649918
20 Sep 2001 15:45:16.00,133.681,-37.757,723.580631
20 Sep 2001 15:46:16.00,152.702,-27.603,1047.574544
20 Sep 2001 15:47:16.00,160.710,-22.792,1437.472042
20 Sep 2001 15:48:16.00,164.931,-20.796,1850.833230
20 Sep 2001 15:49:16.00,167.497,-20.218,2273.466517
20 Sep 2001 15:49:27.85,167.887,-20.210,2357.478077
20 Sep 2001 17:13:11.07,42.077,-20.209,2331.119136
20 Sep 2001 17:14:11.00,50.507,-20.406,2042.904747
20 Sep 2001 17:15:11.00,61.572,-20.906,1812.704778
20 Sep 2001 17:16:11.00,75.386,-21.446,1666.316016
20 Sep 2001 17:17:11.00,90.942,-21.629,1627.092473
20 Sep 2001 17:18:11.00,106.122,-21.293,1702.488402
20 Sep 2001 17:19:11.00,119.074,-20.725,1878.322290
20 Sep 2001 17:20:11.00,129.221,-20.305,2129.076895
20 Sep 2001 17:20:56.88,135.284,-20.210,2356.169156
21 Sep 2001 02:42:53.83,50.879,-20.210,2355.720948
21 Sep 2001 02:43:53.00,59.665,-20.329,2105.434942
21 Sep 2001 02:44:53.00,70.816,-20.637,1915.128374
21 Sep 2001 02:45:53.00,83.971,-20.914,1810.012891
21 Sep 2001 02:46:53.00,98.011,-20.927,1805.667525
21 Sep 2001 02:47:53.00,111.309,-20.665,1902.936712
21 Sep 2001 02:48:53.00,122.674,-20.349,2087.396031
21 Sep 2001 02:49:52.04,131.652,-20.209,2333.476768
21 Sep 2001 04:14:12.76,16.691,-20.210,2357.364832
21 Sep 2001 04:15:12.00,19.978,-20.566,1948.890084
21 Sep 2001 04:16:12.00,25.229,-22.055,1547.516727
21 Sep 2001 04:17:12.00,34.441,-25.533,1174.268008
21 Sep 2001 04:18:12.00,52.782,-31.967,869.157908
21 Sep 2001 04:19:12.00,88.419,-37.619,726.328980
21 Sep 2001 04:20:12.00,126.361,-33.103,834.615811
21 Sep 2001 04:21:12.00,146.838,-26.288,1123.391135
21 Sep 2001 04:22:12.00,156.977,-22.414,1490.459315
21 Sep 2001 04:23:12.00,162.661,-20.697,1889.650607
21 Sep 2001 04:24:12.00,166.221,-20.212,2303.027862
21 Sep 2001 04:24:15.14,166.370,-20.210,2324.855803
21 Sep 2001 05:46:08.36,348.501,-20.210,2357.870600
21 Sep 2001 05:47:08.00,345.570,-20.589,1937.709409
21 Sep 2001 05:48:08.00,340.864,-22.188,1525.460195
21 Sep 2001 05:49:08.00,332.382,-26.059,1138.166753
21 Sep 2001 05:50:08.00,314.302,-33.792,815.343185
21 Sep 2001 05:51:08.00,274.430,-41.289,661.892811
21 Sep 2001 05:52:08.00,231.956,-34.962,785.149501
21 Sep 2001 05:53:08.00,211.963,-26.752,1095.001354
21 Sep 2001 05:54:08.00,202.777,-22.502,1477.520739
21 Sep 2001 05:55:08.00,197.781,-20.701,1887.840472
21 Sep 2001 05:56:08.00,194.702,-20.211,2309.791581
21 Sep 2001 05:56:10.69,194.592,-20.210,2328.848407
21 Sep 2001 07:18:12.32,322.807,-20.210,2358.068337
21 Sep 2001 07:19:12.00,315.046,-20.421,2032.544003
21 Sep 2001 07:20:12.00,304.332,-21.087,1757.286937
21 Sep 2001 07:21:12.00,290.056,-21.963,1563.461847
21 Sep 2001 07:22:12.00,272.824,-22.455,1484.338372
21 Sep 2001 07:23:12.00,255.276,-22.112,1538.059948
21 Sep 2001 07:24:12.00,240.320,-21.256,1711.902679
21 Sep 2001 07:25:12.00,228.954,-20.518,1973.669403
21 Sep 2001 07:26:12.00,220.671,-20.214,2292.412563
21 Sep 2001 07:26:20.44,219.704,-20.209,2340.456630
21 Sep 2001 08:50:07.87,300.360,-20.210,2358.046224
21 Sep 2001 08:51:07.00,290.266,-20.267,2174.294619
21 Sep 2001 08:52:07.00,278.463,-20.372,2067.862701
21 Sep 2001 08:53:07.00,265.916,-20.389,2055.004271
21 Sep 2001 08:54:07.00,253.814,-20.297,2137.443870
21 Sep 2001 08:55:07.00,243.126,-20.212,2304.592387
21 Sep 2001 08:55:20.57,240.957,-20.210,2352.382656
21 Sep 2001 10:20:57.90,290.782,-20.210,2356.773677
21 Sep 2001 10:21:57.00,280.232,-20.231,2238.638865
21 Sep 2001 10:22:57.00,268.708,-20.248,2203.091807
21 Sep 2001 10:23:57.00,257.284,-20.224,2256.714925
21 Sep 2001 10:24:44.10,248.968,-20.210,2357.541286
21 Sep 2001 11:49:57.73,304.961,-20.209,2349.178471
21 Sep 2001 11:50:57.00,295.277,-20.309,2124.432723
21 Sep 2001 11:51:57.00,283.427,-20.521,1971.986625
21 Sep 2001 11:52:57.00,270.149,-20.640,1913.948014
21 Sep 2001 11:53:57.00,256.774,-20.546,1959.038268
21 Sep 2001 11:54:57.00,244.683,-20.334,2100.456730
21 Sep 2001 11:55:57.00,234.611,-20.210,2320.089311
21 Sep 2001 11:56:05.91,233.296,-20.210,2358.088203
21 Sep 2001 13:19:13.74,327.747,-20.209,2336.445358
21 Sep 2001 13:20:13.00,321.179,-20.511,1977.802762
21 Sep 2001 13:21:13.00,311.516,-21.502,1654.020440
21 Sep 2001 13:22:13.00,297.367,-23.093,1399.502216
21 Sep 2001 13:23:13.00,278.056,-24.468,1258.564301
21 Sep 2001 13:24:13.00,256.425,-24.335,1270.356730
21 Sep 2001 13:25:13.00,237.801,-22.841,1431.094495
21 Sep 2001 13:26:13.00,224.390,-21.310,1698.436851
21 Sep 2001 13:27:13.00,215.246,-20.425,2029.749225
21 Sep 2001 13:28:06.76,209.493,-20.210,2358.028190
21 Sep 2001 14:49:53.10,353.751,-20.210,2326.534906
21 Sep 2001 14:50:53.00,352.662,-20.686,1893.935519
21 Sep 2001 14:51:53.00,350.858,-22.590,1464.956632
21 Sep 2001 14:52:53.00,347.358,-27.578,1048.883622
21 Sep 2001 14:53:53.00,337.975,-40.537,673.796701
21 Sep 2001 14:54:53.00,282.494,-66.231,458.896970
21 Sep 2001 14:55:53.00,203.184,-45.150,609.073089
21 Sep 2001 14:56:53.00,190.779,-29.322,966.600019
21 Sep 2001 14:57:53.00,186.630,-23.278,1377.640719
21 Sep 2001 14:58:53.00,184.580,-20.930,1804.743172
21 Sep 2001 14:59:53.00,183.360,-20.231,2237.289682
21 Sep 2001 15:00:09.66,183.105,-20.210,2357.760884
21 Sep 2001 16:22:27.78,23.279,-20.210,2325.964268
21 Sep 2001 16:23:27.00,28.651,-20.567,1948.197809
21 Sep 2001 16:24:27.00,36.828,-21.801,1593.091120
21 Sep 2001 16:25:27.00,49.702,-24.112,1290.941673
21 Sep 2001 16:26:27.00,69.695,-26.862,1088.539514
21 Sep 2001 16:27:27.00,95.533,-27.625,1046.409579
21 Sep 2001 16:28:27.00,118.853,-25.429,1181.845266
21 Sep 2001 16:29:27.00,134.733,-22.734,1445.175854
21 Sep 2001 16:30:27.00,144.743,-21.011,1779.540248
21 Sep 2001 16:31:27.00,151.231,-20.285,2150.846183
21 Sep 2001 16:31:58.93,153.778,-20.210,2357.071451
21 Sep 2001 17:58:04.05,63.748,-20.209,2339.812208
21 Sep 2001 17:59:04.00,73.963,-20.253,2195.962707
21 Sep 2001 18:00:04.00,85.270,-20.304,2129.872076
21 Sep 2001 18:01:04.00,96.836,-20.287,2149.053128
21 Sep 2001 18:02:04.00,107.722,-20.226,2251.119622
21 Sep 2001 18:02:42.08,113.960,-20.210,2354.114352
22 Sep 2001 03:25:05.16,33.672,-20.210,2356.772062
22 Sep 2001 03:26:05.00,40.232,-20.461,2006.793478
22 Sep 2001 03:27:05.00,49.633,-21.327,1694.286750
22 Sep 2001 03:28:05.00,63.102,-22.718,1447.339669
22 Sep 2001 03:29:05.00,81.191,-23.962,1305.272104
22 Sep 2001 03:30:05.00,101.616,-23.978,1303.701893
22 Sep 2001 03:31:05.00,119.808,-22.749,1443.236268
22 Sep 2001 03:32:05.00,133.397,-21.349,1688.864518
22 Sep 2001 03:33:05.00,142.895,-20.470,2001.127955
22 Sep 2001 03:34:00.88,149.157,-20.210,2327.617982
22 Sep 2001 04:56:47.76,3.236,-20.210,2357.658119
22 Sep 2001 04:57:47.00,3.594,-20.606,1929.485792
22 Sep 2001 04:58:47.00,4.196,-22.359,1498.739547
22 Sep 2001 04:59:47.00,5.357,-27.049,1077.774868
22 Sep 2001 05:00:47.00,8.439,-39.649,688.666334
22 Sep 2001 05:01:47.00,36.025,-74.972,433.085781
22 Sep 2001 05:02:47.00,171.016,-50.837,550.442597
22 Sep 2001 05:03:47.00,176.863,-30.890,905.612526
22 Sep 2001 05:04:47.00,178.536,-23.835,1317.848690
22 Sep 2001 05:05:47.00,179.329,-21.127,1746.026929
22 Sep 2001 05:06:47.00,179.794,-20.264,2179.400164
22 Sep 2001 05:07:07.16,179.910,-20.210,2325.404414
22 Sep 2001 06:28:49.08,336.318,-20.210,2357.987391
22 Sep 2001 06:29:49.00,330.851,-20.525,1970.064917
22 Sep 2001 06:30:49.00,322.596,-21.714,1609.934710
22 Sep 2001 06:31:49.00,309.589,-23.973,1304.208890
22 Sep 2001 06:32:49.00,289.424,-26.648,1101.152137
22 Sep 2001 06:33:49.00,263.538,-27.324,1062.481919
22 Sep 2001 06:34:49.00,240.365,-25.130,1204.276961
22 Sep 2001 06:35:49.00,224.646,-22.521,1474.849399
22 Sep 2001 06:36:49.00,214.737,-20.894,1816.601230
22 Sep 2001 06:37:49.00,208.309,-20.253,2195.321387
22 Sep 2001 06:38:10.09,206.585,-20.209,2333.662840
22 Sep 2001 08:00:51.97,311.785,-20.210,2358.094496
22 Sep 2001 08:01:51.00,302.708,-20.335,2099.292775
22 Sep 2001 08:02:51.00,291.086,-20.662,1904.496749
22 Sep 2001 08:03:51.00,277.363,-20.939,1801.847810
22 Sep 2001 08:04:51.00,262.835,-20.921,1807.586870
22 Sep 2001 08:05:51.00,249.292,-20.625,1920.680856
22 Sep 2001 08:06:51.00,237.930,-20.310,2123.539323
22 Sep 2001 08:07:41.49,230.240,-20.209,2346.464670
22 Sep 2001 09:32:29.79,293.009,-20.210,2357.820909
22 Sep 2001 09:33:29.00,282.514,-20.237,2225.463672
22 Sep 2001 09:34:29.00,270.909,-20.267,2175.249068
22 Sep 2001 09:35:29.00,259.248,-20.242,2215.424147
22 Sep 2001 09:36:29.00,248.479,-20.209,2341.146132
22 Sep 2001 09:36:34.24,247.604,-20.210,2355.778991
22 Sep 2001 11:02:19.64,295.339,-20.210,2354.281024
22 Sep 2001 11:03:19.00,284.941,-20.250,2199.732438
22 Sep 2001 11:04:19.00,273.206,-20.307,2126.414966
22 Sep 2001 11:05:19.00,261.146,-20.290,2145.305905
22 Sep 2001 11:06:19.00,249.822,-20.225,2254.019696
22 Sep 2001 11:06:55.16,243.681,-20.210,2357.972228
22 Sep 2001 12:31:13.09,315.015,-20.209,2343.449911
22 Sep 2001 12:32:13.00,306.351,-20.396,2050.055496
22 Sep 2001 12:33:13.00,294.932,-20.889,1818.332833
22 Sep 2001 12:34:13.00,280.696,-21.404,1676.083663
22 Sep 2001 12:35:13.00,264.816,-21.532,1647.428625
22 Sep 2001 12:36:13.00,249.561,-21.155,1738.166569
22 Sep 2001 12:37:13.00,236.748,-20.602,1931.197015
22 Sep 2001 12:38:13.00,226.819,-20.251,2199.010792
22 Sep 2001 12:38:43.97,222.696,-20.210,2358.086732
22 Sep 2001 14:01:02.99,339.445,-20.209,2331.040061
22 Sep 2001 14:02:02.00,335.195,-20.605,1930.163967
22 Sep 2001 14:03:02.00,328.437,-22.091,1541.552002
22 Sep 2001 14:04:02.00,316.912,-25.270,1193.590321
22 Sep 2001 14:05:02.00,296.065,-30.092,935.363098
22 Sep 2001 14:06:02.00,263.720,-32.442,854.260016
22 Sep 2001 14:07:02.00,234.000,-28.678,994.960428
22 Sep 2001 14:08:02.00,216.363,-24.162,1286.180848
22 Sep 2001 14:09:02.00,206.533,-21.524,1649.117514
22 Sep 2001 14:10:02.00,200.617,-20.403,2044.727916
22 Sep 2001 14:10:47.84,197.538,-20.210,2357.934149
22 Sep 2001 15:32:31.90,6.865,-20.210,2324.813134
22 Sep 2001 15:33:31.00,8.801,-20.664,1903.638592
22 Sep 2001 15:34:31.00,11.985,-22.468,1482.551217
22 Sep 2001 15:35:31.00,17.969,-27.032,1078.725934
22 Sep 2001 15:36:31.00,32.520,-37.689,724.936711
22 Sep 2001 15:37:31.00,80.898,-52.677,535.143655
22 Sep 2001 15:38:31.00,138.915,-40.857,668.652239
22 Sep 2001 15:39:31.00,157.014,-28.496,1003.360101
22 Sep 2001 15:40:31.00,163.949,-23.081,1400.884099
22 Sep 2001 15:41:31.00,167.484,-20.886,1819.252308
22 Sep 2001 15:42:31.00,169.600,-20.228,2245.410924
22 Sep 2001 15:42:46.71,170.018,-20.210,2357.525715
22 Sep 2001 17:06:14.54,39.289,-20.210,2330.151423
22 Sep 2001 17:07:14.00,47.284,-20.428,2027.928254
22 Sep 2001 17:08:14.00,58.089,-21.019,1776.876958
22 Sep 2001 17:09:14.00,72.018,-21.730,1606.736305
22 Sep 2001 17:10:14.00,88.275,-22.069,1545.181183
22 Sep 2001 17:11:14.00,104.544,-21.740,1604.886436
22 Sep 2001 17:12:14.00,118.497,-21.032,1773.275061
22 Sep 2001 17:13:14.00,129.322,-20.436,2022.636712
22 Sep 2001 17:14:14.00,137.388,-20.210,2326.059056
22 Sep 2001 17:14:19.59,138.024,-20.210,2356.340144
23 Sep 2001 02:36:19.16,54.030,-20.210,2355.452422
23 Sep 2001 02:37:19.00,63.238,-20.310,2123.153426
23 Sep 2001 02:38:19.00,74.521,-20.548,1957.771726
23 Sep 2001 02:39:19.00,87.416,-20.723,1878.900289
23 Sep 2001 02:40:19.00,100.764,-20.677,1897.858365
23 Sep 2001 02:41:19.00,113.162,-20.453,2011.933004
23 Sep 2001 02:42:19.00,123.701,-20.247,2206.081802
23 Sep 2001 02:42:50.80,128.447,-20.209,2334.755665
23 Sep 2001 04:07:32.06,18.896,-20.210,2357.304389
23 Sep 2001 04:08:32.00,22.693,-20.564,1949.964726
23 Sep 2001 04:09:32.00,28.644,-21.997,1557.506153
23 Sep 2001 04:10:32.00,38.855,-25.208,1198.328385
23 Sep 2001 04:11:32.00,58.020,-30.623,915.271709
23 Sep 2001 04:12:32.00,91.064,-34.516,796.287759
23 Sep 2001 04:13:32.00,124.447,-30.796,908.997356
23 Sep 2001 04:14:32.00,143.990,-25.332,1189.001689
23 Sep 2001 04:15:32.00,154.395,-22.057,1547.250878
23 Sep 2001 04:16:32.00,160.451,-20.584,1939.793427
23 Sep 2001 04:17:28.63,164.141,-20.210,2325.005285
23 Sep 2001 05:39:26.39,350.466,-20.210,2357.847284
23 Sep 2001 05:40:26.00,347.965,-20.596,1934.428425
23 Sep 2001 05:41:26.00,343.926,-22.243,1516.690147
23 Sep 2001 05:42:26.00,336.525,-26.342,1119.961088
23 Sep 2001 05:43:26.00,319.901,-35.161,780.297978
23 Sep 2001 05:44:26.00,277.172,-45.416,605.869239
23 Sep 2001 05:45:26.00,228.584,-37.531,728.093273
23 Sep 2001 05:46:26.00,208.578,-27.605,1047.497715
23 Sep 2001 05:47:26.00,200.085,-22.794,1437.297905
23 Sep 2001 05:48:26.00,195.611,-20.792,1852.376530
23 Sep 2001 05:49:26.00,192.895,-20.217,2277.554635
23 Sep 2001 05:49:33.10,192.644,-20.210,2328.227166
23 Sep 2001 07:11:30.21,324.607,-20.210,2358.060377
23 Sep 2001 07:12:30.00,317.105,-20.436,2022.612239
23 Sep 2001 07:13:30.00,306.625,-21.167,1734.963360
23 Sep 2001 07:14:30.00,292.356,-22.185,1526.005742
23 Sep 2001 07:15:30.00,274.667,-22.836,1431.743150
23 Sep 2001 07:16:30.00,256.283,-22.521,1474.752677
23 Sep 2001 07:17:30.00,240.557,-21.548,1644.078143
23 Sep 2001 07:18:30.00,228.714,-20.659,1905.656947
23 Sep 2001 07:19:30.00,220.194,-20.236,2226.192080
23 Sep 2001 07:19:49.60,217.968,-20.209,2339.494591
23 Sep 2001 08:43:27.35,301.787,-20.210,2358.060818
23 Sep 2001 08:44:27.00,291.695,-20.276,2163.100738
23 Sep 2001 08:45:27.00,279.865,-20.401,2046.393675
23 Sep 2001 08:46:27.00,267.151,-20.434,2023.641072
23 Sep 2001 08:47:27.00,254.778,-20.337,2097.981948
23 Sep 2001 08:48:27.00,243.800,-20.223,2259.501123
23 Sep 2001 08:48:52.86,239.635,-20.209,2351.684689
23 Sep 2001 10:14:25.89,290.575,-20.210,2357.008544
23 Sep 2001 10:15:25.00,280.014,-20.230,2240.749704
23 Sep 2001 10:16:25.00,268.504,-20.246,2207.206434
23 Sep 2001 10:17:25.00,257.114,-20.222,2262.641789
23 Sep 2001 10:18:09.36,249.293,-20.210,2357.408391
23 Sep 2001 11:43:29.85,303.490,-20.209,2349.993150
23 Sep 2001 11:44:29.00,293.697,-20.298,2135.952880
23 Sep 2001 11:45:29.00,281.836,-20.480,1995.336413
23 Sep 2001 11:46:29.00,268.733,-20.565,1949.172403
23 Sep 2001 11:47:29.00,255.691,-20.465,2004.249835
23 Sep 2001 11:48:29.00,243.979,-20.284,2152.596719
23 Sep 2001 11:49:24.69,234.864,-20.210,2358.082422
23 Sep 2001 13:12:41.52,325.958,-20.209,2337.377114
23 Sep 2001 13:13:41.00,319.045,-20.496,1985.889581
23 Sep 2001 13:14:41.00,309.039,-21.412,1674.083829
23 Sep 2001 13:15:41.00,294.732,-22.808,1435.356505
23 Sep 2001 13:16:41.00,275.870,-23.897,1311.674181
23 Sep 2001 13:17:41.00,255.372,-23.657,1336.043364
23 Sep 2001 13:18:41.00,237.821,-22.343,1501.205122
23 Sep 2001 13:19:41.00,224.993,-21.051,1767.533080
23 Sep 2001 13:20:41.00,216.080,-20.339,2095.860033
23 Sep 2001 13:21:24.59,211.336,-20.210,2358.039232
23 Sep 2001 14:43:13.62,351.751,-20.210,2327.005659
23 Sep 2001 14:44:13.00,350.212,-20.673,1899.739432
23 Sep 2001 14:45:13.00,347.658,-22.531,1473.372503
23 Sep 2001 14:46:13.00,342.762,-27.332,1062.058380
23 Sep 2001 14:47:13.00,330.204,-39.195,696.618215
23 Sep 2001 14:48:13.00,277.469,-58.481,495.692991
23 Sep 2001 14:49:13.00,211.464,-42.736,640.572136
23 Sep 2001 14:50:13.00,195.678,-28.807,989.090408
23 Sep 2001 14:51:13.00,190.000,-23.128,1395.305092
23 Sep 2001 14:52:13.00,187.143,-20.885,1819.737052
23 Sep 2001 14:53:13.00,185.434,-20.226,2250.671255
23 Sep 2001 14:53:27.86,185.112,-20.210,2357.789624
23 Sep 2001 16:15:38.69,20.940,-20.210,2325.587436
23 Sep 2001 16:16:38.00,25.872,-20.587,1938.643427
23 Sep 2001 16:17:38.00,33.479,-21.921,1571.075707
23 Sep 2001 16:18:38.00,45.820,-24.554,1251.087074
23 Sep 2001 16:19:38.00,66.097,-28.023,1026.158180
23 Sep 2001 16:20:38.00,94.111,-29.330,966.260110
23 Sep 2001 16:21:38.00,119.758,-26.687,1098.823194
23 Sep 2001 16:22:38.00,136.525,-23.359,1368.454610
23 Sep 2001 16:23:38.00,146.647,-21.261,1710.563508
23 Sep 2001 16:24:38.00,153.018,-20.347,2088.613688
23 Sep 2001 16:25:18.86,156.085,-20.210,2357.150632
23 Sep 2001 17:50:54.36,59.547,-20.209,2338.061448
23 Sep 2001 17:51:54.00,69.498,-20.274,2165.040851
23 Sep 2001 17:52:54.00,80.929,-20.374,2066.673012
23 Sep 2001 17:53:54.00,93.013,-20.389,2055.445041
23 Sep 2001 17:54:54.00,104.684,-20.301,2132.652332
23 Sep 2001 17:55:54.00,115.066,-20.215,2288.925478
23 Sep 2001 17:56:13.62,118.102,-20.210,2354.639367
24 Sep 2001 03:18:26.31,36.170,-20.210,2356.654343
24 Sep 2001 03:19:26.00,43.114,-20.440,2019.761308
24 Sep 2001 03:20:26.00,52.906,-21.210,1723.568895
24 Sep 2001 03:21:26.00,66.512,-22.369,1497.227746
24 Sep 2001 03:22:26.00,84.025,-23.284,1377.025568
24 Sep 2001 03:23:26.00,103.078,-23.160,1391.482547
24 Sep 2001 03:24:26.00,119.897,-22.119,1536.882742
24 Sep 2001 03:25:26.00,132.673,-21.006,1781.019752
24 Sep 2001 03:26:26.00,141.821,-20.347,2088.780986
24 Sep 2001 03:27:08.01,146.617,-20.210,2328.310346
24 Sep 2001 04:50:06.27,5.306,-20.210,2357.620236
24 Sep 2001 04:51:06.00,6.135,-20.611,1927.130528
24 Sep 2001 04:52:06.00,7.502,-22.363,1498.146266
24 Sep 2001 04:53:06.00,10.116,-27.009,1080.055970
24 Sep 2001 04:54:06.00,16.923,-39.196,696.605655
24 Sep 2001 04:55:06.00,60.210,-68.242,451.662890
24 Sep 2001 04:56:06.00,159.160,-48.789,569.398953
24 Sep 2001 04:57:06.00,171.168,-30.509,919.513937
24 Sep 2001 04:58:06.00,174.821,-23.728,1328.757115
24 Sep 2001 04:59:06.00,176.569,-21.094,1755.090305
24 Sep 2001 05:00:06.00,177.592,-20.258,2187.179796
24 Sep 2001 05:00:25.10,177.834,-20.210,2325.155283
24 Sep 2001 06:22:06.93,338.209,-20.210,2357.972143
24 Sep 2001 06:23:06.00,333.198,-20.527,1968.757660
24 Sep 2001 06:24:06.00,325.464,-21.774,1598.241647
24 Sep 2001 06:25:06.00,312.999,-24.262,1277.001103
24 Sep 2001 06:26:06.00,292.774,-27.495,1053.281492
24 Sep 2001 06:27:06.00,265.264,-28.646,996.395513
24 Sep 2001 06:28:06.00,240.160,-26.154,1132.003647
24 Sep 2001 06:29:06.00,223.586,-23.048,1404.939375
24 Sep 2001 06:30:06.00,213.479,-21.108,1751.205183
24 Sep 2001 06:31:06.00,207.075,-20.300,2134.191054
24 Sep 2001 06:31:35.91,204.733,-20.209,2332.817241
24 Sep 2001 07:54:10.23,313.472,-20.210,2358.093447
24 Sep 2001 07:55:10.00,304.455,-20.350,2085.875855
24 Sep 2001 07:56:10.00,292.891,-20.722,1879.244308
24 Sep 2001 07:57:10.00,279.013,-21.063,1764.031974
24 Sep 2001 07:58:10.00,264.090,-21.081,1758.838021
24 Sep 2001 07:59:10.00,250.052,-20.760,1864.568660
24 Sep 2001 08:00:10.00,238.265,-20.378,2063.768474
24 Sep 2001 08:01:10.00,229.013,-20.209,2331.775159
24 Sep 2001 08:01:12.79,228.639,-20.209,2345.547149
24 Sep 2001 09:25:51.98,293.917,-20.210,2357.879074
24 Sep 2001 09:26:51.00,283.494,-20.240,2219.448959
24 Sep 2001 09:27:51.00,271.857,-20.276,2162.151387
24 Sep 2001 09:28:51.00,260.084,-20.253,2195.762460
24 Sep 2001 09:29:51.00,249.157,-20.211,2316.161012
24 Sep 2001 09:30:04.97,246.811,-20.210,2355.367063
24 Sep 2001 10:55:51.27,294.313,-20.210,2354.797401
24 Sep 2001 10:56:51.00,283.793,-20.246,2207.471305
24 Sep 2001 10:57:51.00,272.092,-20.292,2143.177328
24 Sep 2001 10:58:51.00,260.174,-20.270,2170.531015
24 Sep 2001 10:59:51.00,249.059,-20.215,2286.136194
24 Sep 2001 11:00:16.14,244.819,-20.210,2357.935739
24 Sep 2001 12:24:43.74,313.360,-20.209,2344.399034
24 Sep 2001 12:25:43.00,304.590,-20.377,2064.071620
24 Sep 2001 12:26:43.00,293.078,-20.814,1844.393172
24 Sep 2001 12:27:43.00,278.984,-21.242,1715.358116
24 Sep 2001 12:28:43.00,263.545,-21.310,1698.452867
24 Sep 2001 12:29:43.00,248.876,-20.954,1796.960756
24 Sep 2001 12:30:43.00,236.564,-20.483,1993.467253
24 Sep 2001 12:31:43.00,226.965,-20.222,2261.819239
24 Sep 2001 12:32:02.05,224.429,-20.210,2358.090468
24 Sep 2001 13:54:27.66,337.560,-20.209,2331.818547
24 Sep 2001 13:55:27.00,332.886,-20.595,1934.492919
24 Sep 2001 13:56:27.00,325.560,-22.013,1554.806768
24 Sep 2001 13:57:27.00,313.349,-24.920,1220.777771
24 Sep 2001 13:58:27.00,292.387,-28.954,982.513266
24 Sep 2001 13:59:27.00,262.249,-30.515,919.273107
24 Sep 2001 14:00:27.00,235.081,-27.314,1063.064690
24 Sep 2001 14:01:27.00,218.174,-23.538,1348.760617
24 Sep 2001 14:02:27.00,208.321,-21.281,1705.574558
24 Sep 2001 14:03:27.00,202.230,-20.339,2096.298905
24 Sep 2001 14:04:05.72,199.454,-20.210,2357.951929
24 Sep 2001 15:25:48.35,4.742,-20.210,2324.929657
24 Sep 2001 15:26:48.00,6.216,-20.679,1897.044096
24 Sep 2001 15:27:48.00,8.633,-22.542,1471.787121
24 Sep 2001 15:28:48.00,13.247,-27.351,1061.019003
24 Sep 2001 15:29:48.00,25.095,-39.317,694.450621
24 Sep 2001 15:30:48.00,77.396,-59.793,488.341199
24 Sep 2001 15:31:48.00,146.443,-43.598,628.776846
24 Sep 2001 15:32:48.00,161.985,-29.110,975.702240
24 Sep 2001 15:33:48.00,167.450,-23.254,1380.435176
24 Sep 2001 15:34:48.00,170.170,-20.935,1803.205934
24 Sep 2001 15:35:48.00,171.779,-20.233,2232.351411
24 Sep 2001 15:36:05.44,172.129,-20.210,2357.570016
24 Sep 2001 16:59:19.24,36.590,-20.210,2329.272558
24 Sep 2001 17:00:19.00,44.257,-20.455,2010.655068
24 Sep 2001 17:01:19.00,54.791,-21.146,1740.724650
24 Sep 2001 17:02:19.00,68.805,-22.049,1548.622945
24 Sep 2001 17:03:19.00,85.769,-22.582,1466.119688
24 Sep 2001 17:04:19.00,103.194,-22.276,1511.499692
24 Sep 2001 17:05:19.00,118.203,-21.412,1674.078686
24 Sep 2001 17:06:19.00,129.701,-20.619,1923.647164
24 Sep 2001 17:07:19.00,138.120,-20.234,2230.184937
24 Sep 2001 17:07:41.74,140.677,-20.210,2356.491261
25 Sep 2001 02:29:45.80,57.388,-20.210,2355.132185
25 Sep 2001 02:30:45.00,66.774,-20.288,2147.290120
25 Sep 2001 02:31:45.00,78.093,-20.461,2006.907790
25 Sep 2001 02:32:45.00,90.646,-20.557,1953.310301
25 Sep 2001 02:33:45.00,103.296,-20.482,1993.886052
25 Sep 2001 02:34:45.00,114.860,-20.310,2123.199761
25 Sep 2001 02:35:45.00,124.656,-20.210,2326.099641
25 Sep 2001 02:35:47.57,125.033,-20.209,2336.153994
25 Sep 2001 04:00:51.54,21.131,-20.210,2357.238867
25 Sep 2001 04:01:51.00,25.343,-20.545,1959.715030
25 Sep 2001 04:02:51.00,31.909,-21.889,1576.844072
25 Sep 2001 04:03:51.00,42.885,-24.780,1232.150212
25 Sep 2001 04:04:51.00,62.303,-29.246,969.809478
25 Sep 2001 04:05:51.00,92.729,-31.950,869.724870
25 Sep 2001 04:06:51.00,122.598,-28.935,983.374197
25 Sep 2001 04:07:51.00,141.311,-24.525,1253.664119
25 Sep 2001 04:08:51.00,151.907,-21.752,1602.459640
25 Sep 2001 04:09:51.00,158.290,-20.493,1987.794859
25 Sep 2001 04:10:41.35,161.880,-20.210,2325.223463
25 Sep 2001 05:32:44.46,352.444,-20.210,2357.822413
25 Sep 2001 05:33:44.00,350.382,-20.601,1932.062153
25 Sep 2001 05:34:44.00,347.034,-22.288,1509.697109
25 Sep 2001 05:35:44.00,340.815,-26.587,1104.828865
25 Sep 2001 05:36:44.00,326.139,-36.489,749.851585
25 Sep 2001 05:37:44.00,280.730,-50.404,554.276789
25 Sep 2001 05:38:44.00,224.131,-40.413,675.817702
25 Sep 2001 05:39:44.00,204.716,-28.460,1005.056549
25 Sep 2001 05:40:44.00,197.165,-23.074,1401.744360
25 Sep 2001 05:41:44.00,193.310,-20.880,1821.131527
25 Sep 2001 05:42:44.00,191.004,-20.226,2249.157487
25 Sep 2001 05:42:54.94,190.681,-20.210,2327.650178
25 Sep 2001 07:04:48.07,326.421,-20.210,2358.051463
25 Sep 2001 07:05:48.00,319.188,-20.451,2012.788870
25 Sep 2001 07:06:48.00,308.969,-21.252,1712.969302
25 Sep 2001 07:07:48.00,294.745,-22.425,1488.814440
25 Sep 2001 07:08:48.00,276.598,-23.267,1378.967072
25 Sep 2001 07:09:48.00,257.303,-23.000,1410.886069
25 Sep 2001 07:10:48.00,240.730,-21.894,1575.808741
25 Sep 2001 07:11:48.00,228.381,-20.833,1837.606325
25 Sep 2001 07:12:48.00,219.624,-20.278,2160.341976
25 Sep 2001 07:13:18.35,216.215,-20.209,2338.538223
25 Sep 2001 08:36:46.57,303.264,-20.210,2358.072174
25 Sep 2001 08:37:46.00,293.323,-20.283,2153.597268
25 Sep 2001 08:38:46.00,281.494,-20.432,2025.110872
25 Sep 2001 08:39:46.00,268.613,-20.488,1990.729231
25 Sep 2001 08:40:46.00,255.939,-20.389,2055.314287
25 Sep 2001 08:41:46.00,244.625,-20.245,2209.894166
25 Sep 2001 08:42:25.15,238.260,-20.209,2350.947546
25 Sep 2001 10:07:53.04,290.532,-20.210,2357.207556
25 Sep 2001 10:08:53.00,279.811,-20.230,2240.546322
25 Sep 2001 10:09:53.00,268.301,-20.245,2208.947926
25 Sep 2001 10:10:53.00,256.933,-20.221,2266.233856
25 Sep 2001 10:11:35.47,249.454,-20.210,2357.248200
25 Sep 2001 11:37:02.08,302.059,-20.209,2350.774742
25 Sep 2001 11:38:02.00,292.005,-20.291,2144.715773
25 Sep 2001 11:39:02.00,280.122,-20.445,2016.940182
25 Sep 2001 11:40:02.00,267.186,-20.500,1983.688372
25 Sep 2001 11:41:02.00,254.473,-20.396,2049.752499
25 Sep 2001 11:42:02.00,243.140,-20.247,2205.963688
25 Sep 2001 11:42:43.66,236.394,-20.210,2358.074371
25 Sep 2001 13:06:09.74,324.185,-20.209,2338.321908
25 Sep 2001 13:07:09.00,317.002,-20.478,1996.808734
25 Sep 2001 13:08:09.00,306.713,-21.316,1696.856664
25 Sep 2001 13:09:09.00,292.335,-22.532,1473.223970
25 Sep 2001 13:10:09.00,273.962,-23.387,1365.266111
25 Sep 2001 13:11:09.00,254.488,-23.084,1400.568574
25 Sep 2001 13:12:09.00,237.869,-21.930,1569.381935
25 Sep 2001 13:13:09.00,225.560,-20.841,1834.603648
25 Sep 2001 13:14:09.00,216.861,-20.278,2160.051272
25 Sep 2001 13:14:42.43,213.165,-20.210,2358.049317
25 Sep 2001 14:36:34.74,349.768,-20.210,2327.525374
25 Sep 2001 14:37:34.00,347.778,-20.664,1903.320708
25 Sep 2001 14:38:34.00,344.488,-22.481,1480.590332
25 Sep 2001 14:39:34.00,338.265,-27.084,1075.814513
25 Sep 2001 14:40:34.00,323.071,-37.772,723.287426
25 Sep 2001 14:41:34.00,273.809,-51.983,540.731382
25 Sep 2001 14:42:34.00,217.867,-39.995,682.753197
25 Sep 2001 14:43:34.00,200.112,-28.116,1021.548757
25 Sep 2001 14:44:34.00,193.176,-22.912,1421.918644
25 Sep 2001 14:45:34.00,189.599,-20.818,1842.924443
25 Sep 2001 14:46:34.00,187.438,-20.219,2271.695073
25 Sep 2001 14:46:45.99,187.105,-20.210,2357.816552
25 Sep 2001 16:08:50.43,18.638,-20.210,2325.282820
25 Sep 2001 16:09:50.00,23.136,-20.607,1928.862686
25 Sep 2001 16:10:50.00,30.144,-22.041,1549.988568
25 Sep 2001 16:11:50.00,41.847,-25.013,1213.368455
25 Sep 2001 16:12:50.00,62.254,-29.327,966.385311
25 Sep 2001 16:13:50.00,92.733,-31.379,888.569609
25 Sep 2001 16:14:50.00,121.089,-28.156,1019.600497
25 Sep 2001 16:15:50.00,138.693,-24.047,1297.120504
25 Sep 2001 16:16:50.00,148.801,-21.531,1647.751568
25 Sep 2001 16:17:50.00,154.968,-20.421,2032.781383
25 Sep 2001 16:18:38.57,158.357,-20.210,2357.223227
25 Sep 2001 17:43:48.05,55.778,-20.209,2336.490286
25 Sep 2001 17:44:48.00,65.544,-20.298,2136.546644
25 Sep 2001 17:45:48.00,77.036,-20.456,2009.856714
25 Sep 2001 17:46:48.00,89.568,-20.523,1971.297725
25 Sep 2001 17:47:48.00,101.984,-20.431,2025.945105
25 Sep 2001 17:48:48.00,113.183,-20.273,2166.404926
25 Sep 2001 17:49:42.48,121.813,-20.210,2355.050435
26 Sep 2001 03:11:47.87,38.731,-20.210,2356.523153
26 Sep 2001 03:12:47.00,45.986,-20.416,2035.731583
26 Sep 2001 03:13:47.00,56.106,-21.089,1756.484490
26 Sep 2001 03:14:47.00,69.745,-22.036,1550.776833
26 Sep 2001 03:15:47.00,86.630,-22.688,1451.470420
26 Sep 2001 03:16:47.00,104.430,-22.480,1480.749090
26 Sep 2001 03:17:47.00,120.041,-21.606,1631.721946
26 Sep 2001 03:18:47.00,132.073,-20.734,1874.768886
26 Sep 2001 03:19:47.00,140.871,-20.264,2178.505746
26 Sep 2001 03:20:14.09,144.012,-20.210,2329.084778
26 Sep 2001 04:43:24.88,7.394,-20.210,2357.579614
26 Sep 2001 04:44:24.00,8.674,-20.598,1933.339443
26 Sep 2001 04:45:24.00,10.789,-22.305,1507.088428
26 Sep 2001 04:46:24.00,14.783,-26.778,1093.414009
26 Sep 2001 04:47:24.00,24.788,-38.036,718.130192
26 Sep 2001 04:48:24.00,70.294,-60.438,484.908012
26 Sep 2001 04:49:24.00,148.829,-46.258,596.085236
26 Sep 2001 04:50:24.00,165.599,-30.078,935.882444
26 Sep 2001 04:51:24.00,171.117,-23.624,1339.612243
26 Sep 2001 04:52:24.00,173.800,-21.068,1762.742866
26 Sep 2001 04:53:24.00,175.377,-20.255,2192.721442
26 Sep 2001 04:53:42.38,175.738,-20.210,2324.964657
26 Sep 2001 06:15:24.78,340.112,-20.210,2357.955776
26 Sep 2001 06:16:24.00,335.461,-20.541,1961.670342
26 Sep 2001 06:17:24.00,328.223,-21.861,1581.938632
26 Sep 2001 06:18:24.00,316.287,-24.604,1246.836464
26 Sep 2001 06:19:24.00,295.992,-28.474,1004.398039
26 Sep 2001 06:20:24.00,266.637,-30.191,931.512332
26 Sep 2001 06:21:24.00,239.416,-27.298,1063.918422
26 Sep 2001 06:22:24.00,222.086,-23.604,1341.690939
26 Sep 2001 06:23:24.00,211.914,-21.329,1693.850895
26 Sep 2001 06:24:24.00,205.627,-20.355,2081.774907
26 Sep 2001 06:25:01.22,202.866,-20.209,2332.000089
26 Sep 2001 07:47:28.40,315.180,-20.210,2358.091129
26 Sep 2001 07:48:28.00,306.395,-20.362,2076.164068
26 Sep 2001 07:49:28.00,294.947,-20.781,1856.419350
26 Sep 2001 07:50:28.00,280.953,-21.198,1726.769466
26 Sep 2001 07:51:28.00,265.621,-21.269,1708.471668
26 Sep 2001 07:52:28.00,251.024,-20.929,1804.961277
26 Sep 2001 07:53:28.00,238.738,-20.473,1999.247884
26 Sep 2001 07:54:28.00,229.137,-20.221,2265.502226
26 Sep 2001 07:54:43.82,227.012,-20.209,2344.613265
26 Sep 2001 09:19:13.59,294.935,-20.210,2357.926286
26 Sep 2001 09:20:13.00,284.484,-20.244,2211.612281
26 Sep 2001 09:21:13.00,272.806,-20.288,2147.207289
26 Sep 2001 09:22:13.00,260.912,-20.267,2174.274291
26 Sep 2001 09:23:13.00,249.816,-20.215,2289.431686
26 Sep 2001 09:23:36.16,245.907,-20.210,2354.908249
26 Sep 2001 10:49:22.54,293.385,-20.210,2355.266825
26 Sep 2001 10:50:22.00,282.873,-20.241,2215.668963
26 Sep 2001 10:51:22.00,271.215,-20.279,2158.645780
26 Sep 2001 10:52:22.00,259.423,-20.255,2192.685193
26 Sep 2001 10:53:22.00,248.481,-20.211,2313.630336
26 Sep 2001 10:53:37.62,245.861,-20.210,2357.890691
26 Sep 2001 12:18:14.69,311.729,-20.209,2345.336083
26 Sep 2001 12:19:14.00,302.751,-20.363,2075.130565
26 Sep 2001 12:20:14.00,291.134,-20.750,1868.339668
26 Sep 2001 12:21:14.00,277.169,-21.100,1753.417083
26 Sep 2001 12:22:14.00,262.151,-21.115,1749.184082
26 Sep 2001 12:23:14.00,248.044,-20.781,1856.454477
26 Sep 2001 12:24:14.00,236.225,-20.386,2057.445354
26 Sep 2001 12:25:14.00,226.965,-20.210,2327.223262
26 Sep 2001 12:25:20.20,226.142,-20.210,2358.093034
26 Sep 2001 13:47:52.86,335.690,-20.209,2332.628825
26 Sep 2001 13:48:52.00,330.652,-20.578,1942.766013
26 Sep 2001 13:49:52.00,322.822,-21.913,1572.360135
26 Sep 2001 13:50:52.00,310.085,-24.540,1252.288299
26 Sep 2001 13:51:52.00,289.267,-27.893,1032.677494
26 Sep 2001 13:52:52.00,261.137,-28.908,984.555194
26 Sep 2001 13:53:52.00,236.065,-26.180,1130.275638
26 Sep 2001 13:54:52.00,219.823,-23.003,1410.509929
26 Sep 2001 13:55:52.00,209.986,-21.073,1761.269279
26 Sep 2001 13:56:52.00,203.756,-20.289,2147.065286
26 Sep 2001 13:57:23.58,201.359,-20.210,2357.968529
26 Sep 2001 15:19:05.48,2.640,-20.210,2325.106742
26 Sep 2001 15:20:05.00,3.628,-20.681,1896.057604
26 Sep 2001 15:21:05.00,5.252,-22.571,1467.667850
26 Sep 2001 15:22:05.00,8.379,-27.527,1051.590567
26 Sep 2001 15:23:05.00,16.732,-40.485,674.649311
26 Sep 2001 15:24:05.00,70.025,-67.966,452.605595
26 Sep 2001 15:25:05.00,155.464,-46.211,596.613189
26 Sep 2001 15:26:05.00,167.207,-29.657,952.663273
26 Sep 2001 15:27:05.00,171.020,-23.410,1362.707487
26 Sep 2001 15:28:05.00,172.877,-20.981,1788.732868
26 Sep 2001 15:29:05.00,173.965,-20.239,2220.117318
26 Sep 2001 15:29:24.07,174.221,-20.210,2357.611263
26 Sep 2001 16:52:25.08,33.969,-20.210,2328.479137
26 Sep 2001 16:53:25.00,41.268,-20.480,1995.128023
26 Sep 2001 16:54:25.00,51.478,-21.274,1707.209042
26 Sep 2001 16:55:25.00,65.498,-22.394,1493.471271
26 Sep 2001 16:56:25.00,83.153,-23.176,1389.575370
26 Sep 2001 16:57:25.00,101.842,-22.926,1420.173195
26 Sep 2001 16:58:25.00,118.020,-21.887,1577.196111
26 Sep 2001 16:59:25.00,130.235,-20.861,1827.649591
26 Sep 2001 17:00:25.00,138.999,-20.297,2137.950185
26 Sep 2001 17:01:03.39,143.254,-20.210,2356.625814

